{"route": [{"no": 1, "distance": 0.0, "halt": -1, "schdep": "16:40", "station": {"name": "COIMBATORE JN", "lng": 76.9558321, "lat": 11.0168445, "code": "CBE"}, "day": 1, "scharr": "SOURCE"}, {"no": 2, "distance": 6.0, "halt": 1, "schdep": "16:50", "station": {"name": "PODANUR JN", "lng": 77.0009019, "lat": 10.9572757, "code": "PTJ"}, "day": 1, "scharr": "16:49"}, {"no": 3, "distance": 16.0, "halt": 1, "schdep": "17:02", "station": {"name": "MADUKARAI", "lng": 76.9588282, "lat": 10.9100764, "code": "MDKI"}, "day": 1, "scharr": "17:01"}, {"no": 4, "distance": 21.0, "halt": 1, "schdep": "17:10", "station": {"name": "ETTIMADAI", "lng": 76.9038011, "lat": 10.8977885, "code": "ETMD"}, "day": 1, "scharr": "17:09"}, {"no": 5, "distance": 30.0, "halt": 1, "schdep": "17:24", "station": {"name": "WALAYAR", "lng": 76.84614959999999, "lat": 10.8345281, "code": "WRA"}, "day": 1, "scharr": "17:23"}, {"no": 6, "distance": 41.0, "halt": 1, "schdep": "17:38", "station": {"name": "KANJIKODE", "lng": 76.75209840000001, "lat": 10.799315, "code": "KJKD"}, "day": 1, "scharr": "17:37"}, {"no": 7, "distance": 54.0, "halt": 3, "schdep": "17:55", "station": {"name": "PALAKKAD", "lng": 76.6547932, "lat": 10.7867303, "code": "PGT"}, "day": 1, "scharr": "17:52"}, {"no": 8, "distance": 64.0, "halt": 1, "schdep": "18:05", "station": {"name": "PARLI", "lng": 76.5198462, "lat": 18.8453169, "code": "PLL"}, "day": 1, "scharr": "18:04"}, {"no": 9, "distance": 70.0, "halt": 1, "schdep": "18:12", "station": {"name": "MANKARAI", "lng": 76.8317325, "lat": 11.0799594, "code": "MNY"}, "day": 1, "scharr": "18:11"}, {"no": 10, "distance": 78.0, "halt": 1, "schdep": "18:20", "station": {"name": "LAKKITI", "lng": 76.43432, "lat": 10.75315, "code": "LDY"}, "day": 1, "scharr": "18:19"}, {"no": 11, "distance": 82.0, "halt": 1, "schdep": "18:25", "station": {"name": "PALAPPURAM", "lng": 76.41581289999999, "lat": 10.7633016, "code": "PLPM"}, "day": 1, "scharr": "18:24"}, {"no": 12, "distance": 86.0, "halt": 1, "schdep": "18:35", "station": {"name": "OTTAPPALAM", "lng": 76.36951669999999, "lat": 10.7722644, "code": "OTP"}, "day": 1, "scharr": "18:34"}, {"no": 13, "distance": 93.0, "halt": 1, "schdep": "18:43", "station": {"name": "MANNANUR", "lng": 76.3217567, "lat": 10.7522331, "code": "MNUR"}, "day": 1, "scharr": "18:42"}, {"no": 14, "distance": 97.0, "halt": 25, "schdep": "19:30", "station": {"name": "SHORANUR JN", "lng": 76.2652909, "lat": 10.7676064, "code": "SRR"}, "day": 1, "scharr": "19:05"}, {"no": 15, "distance": 101.0, "halt": 1, "schdep": "19:45", "station": {"name": "VALLATTOLNAGAR", "lng": 76.281337, "lat": 10.731679, "code": "VTK"}, "day": 1, "scharr": "19:44"}, {"no": 16, "distance": 105.0, "halt": 1, "schdep": "19:52", "station": {"name": "MULLURCARAI", "lng": 76.2652909, "lat": 10.7015419, "code": "MUC"}, "day": 1, "scharr": "19:51"}, {"no": 17, "distance": 113.0, "halt": 1, "schdep": "19:59", "station": {"name": "WADAKANCHERI", "lng": 76.23632479999999, "lat": 10.6617378, "code": "WKI"}, "day": 1, "scharr": "19:58"}, {"no": 18, "distance": 121.0, "halt": 1, "schdep": "20:08", "station": {"name": "MULAGUNNATHUKVU", "lng": 76.2076306, "lat": 10.5957602, "code": "MGK"}, "day": 1, "scharr": "20:07"}, {"no": 19, "distance": 128.0, "halt": 1, "schdep": "20:16", "station": {"name": "PUNKUNNAM", "lng": 76.20149140000001, "lat": 10.5351966, "code": "PNQ"}, "day": 1, "scharr": "20:15"}, {"no": 20, "distance": 130.0, "halt": -1, "schdep": "DEST", "station": {"name": "THRISUR", "lng": 76.20846399999999, "lat": 10.516089, "code": "TCR"}, "day": 1, "scharr": "20:55"}], "debit": 1, "response_code": 200, "train": {"name": "CBE-TCR PASSENGER", "number": "56605", "days": [{"code": "MON", "runs": "Y"}, {"code": "TUE", "runs": "Y"}, {"code": "WED", "runs": "Y"}, {"code": "THU", "runs": "Y"}, {"code": "FRI", "runs": "Y"}, {"code": "SAT", "runs": "Y"}, {"code": "SUN", "runs": "Y"}], "classes": [{"name": "AC CHAIR CAR", "available": "-", "code": "CC"}, {"name": "FIRST CLASS", "available": "-", "code": "FC"}, {"name": "FIRST AC", "available": "-", "code": "1A"}, {"name": "SLEEPER CLASS", "available": "-", "code": "SL"}, {"name": "3rd AC ECONOMY", "available": "-", "code": "3E"}, {"name": "SECOND AC", "available": "-", "code": "2A"}, {"name": "SECOND SEATING", "available": "-", "code": "2S"}, {"name": "THIRD AC", "available": "-", "code": "3A"}]}}